{"currentPage":1,"numberOfPages":1,"totalResults":3,"data":[{"id":"jg1aNw","name":"Beer Thousand","nameDisplay":"Beer Thousand","description":"The flavor is sweet, malty and boozy up front with a warm alcohol bite and a clean, slightly bitter finish","abv":"10","ibu":"60","styleId":99,"isOrganic":"N","labels":{"icon":"https:\/\/s3.amazonaws.com\/brewerydbapi\/beer\/jg1aNw\/upload_HNrTnR-icon.png","medium":"https:\/\/s3.amazonaws.com\/brewerydbapi\/beer\/jg1aNw\/upload_HNrTnR-medium.png","large":"https:\/\/s3.amazonaws.com\/brewerydbapi\/beer\/jg1aNw\/upload_HNrTnR-large.png"},"status":"verified","statusDisplay":"Verified","createDate":"2014-09-19 13:52:29","updateDate":"2015-12-17 17:32:13","style":{"id":99,"categoryId":8,"category":{"id":8,"name":"North American Lager","createDate":"2012-03-21 20:06:46"},"name":"American-Style Ice Lager","shortName":"American Ice Lager","description":"This style is slightly higher in alcohol than most other light-colored, American-style lagers. Its body is low to medium and has low residual malt sweetness. It has few or no adjuncts. Color is very pale to golden. Hop bitterness is low but certainly perceptible. Hop aroma and flavor are low. Chill haze, fruity esters, and diacetyl should not be perceived. Typically these beers are chilled before filtration so that ice crystals (which may or may not be removed) are formed. This can contribute to a higher alcohol content (up to 0.5% more).","ibuMin":"7","ibuMax":"20","abvMin":"4.75","abvMax":"6.25","srmMin":"2","srmMax":"8","ogMin":"1.04","fgMin":"1.006","fgMax":"1.014","createDate":"2012-03-21 20:06:46","updateDate":"2015-04-07 15:40:16"},"breweries":[{"id":"g0jHqt","name":"Dogfish Head Craft Brewery","nameShortDisplay":"Dogfish Head","description":"Dogfish Head Craft Brewery makes off-centered ales for off-centered people.  Since 1995, Dogfish has brewed with nonstandard ingredients such as raisins, chicory, maple syrup, and grapes, changing the way people think about beer.  Dogfish believes beer can have as much flavor, complexity, diversity, food-compatibility and ageability as the world's finest wines.  To discover your favorite off-centered ale, visit www.dogfish.com","website":"http:\/\/www.dogfish.com\/","established":"1995","isOrganic":"N","images":{"icon":"https:\/\/s3.amazonaws.com\/brewerydbapi\/brewery\/g0jHqt\/upload_dHJ7CZ-icon.png","medium":"https:\/\/s3.amazonaws.com\/brewerydbapi\/brewery\/g0jHqt\/upload_dHJ7CZ-medium.png","large":"https:\/\/s3.amazonaws.com\/brewerydbapi\/brewery\/g0jHqt\/upload_dHJ7CZ-large.png","squareMedium":"https:\/\/s3.amazonaws.com\/brewerydbapi\/brewery\/g0jHqt\/upload_dHJ7CZ-squareMedium.png","squareLarge":"https:\/\/s3.amazonaws.com\/brewerydbapi\/brewery\/g0jHqt\/upload_dHJ7CZ-squareLarge.png"},"status":"verified","statusDisplay":"Verified","createDate":"2012-01-03 02:41:53","updateDate":"2015-12-30 14:03:15","locations":[{"id":"Mq24sa","name":"Main Brewery","streetAddress":"6 Cannery Village Center","locality":"Milton","region":"Delaware","postalCode":"19968","phone":"302-684-1000","website":"http:\/\/www.dogfish.com\/","latitude":38.770622,"longitude":-75.310893,"isPrimary":"Y","inPlanning":"N","isClosed":"N","openToPublic":"Y","locationType":"micro","locationTypeDisplay":"Micro Brewery","countryIsoCode":"US","yearOpened":"1995","status":"verified","statusDisplay":"Verified","createDate":"2012-01-03 02:41:53","updateDate":"2014-07-23 19:11:34","country":{"isoCode":"US","name":"UNITED STATES","displayName":"United States","isoThree":"USA","numberCode":840,"createDate":"2012-01-03 02:41:33"}},{"id":"57kBD4","name":"Dogfish Head Brewings & Eats","streetAddress":"320 Rehoboth Avenue","locality":"Rehoboth Beach","region":"Delaware","postalCode":"19971","phone":"302-226-2739","website":"http:\/\/www.dogfish.com\/","hoursOfOperation":"Open 7 Days, Year Round! Open at noon for LUNCH everyday, & we serve DINNER every night!","latitude":38.715362,"longitude":-75.086898,"isPrimary":"N","inPlanning":"N","isClosed":"N","openToPublic":"Y","locationType":"brewpub","locationTypeDisplay":"Brewpub","countryIsoCode":"US","yearOpened":"1995","status":"verified","statusDisplay":"Verified","createDate":"2012-01-24 14:58:17","updateDate":"2014-07-23 19:11:34","country":{"isoCode":"US","name":"UNITED STATES","displayName":"United States","isoThree":"USA","numberCode":840,"createDate":"2012-01-03 02:41:33"}},{"id":"hRSzMV","name":"DFH Alehouse, Gaithersburg","streetAddress":"800 West Diamond Ave.","locality":"Gaithersburg","region":"Maryland","postalCode":"20878","phone":"301-963-4847","website":"http:\/\/www.dogfishalehouse.com\/dogfish-head-alehouse-gaithersburg.html","hoursOfOperation":"Monday - Wednesday: 11:30am to 11:00pm\r\nThursday: 11:00am to 11:00pm\r\nFriday-Saturday: 11:00am to 12:00am\r\nSunday: 11:30am to 10:00pm","latitude":39.142971,"longitude":-77.215924,"isPrimary":"N","inPlanning":"N","isClosed":"N","openToPublic":"Y","locationType":"restaurant","locationTypeDisplay":"Restaurant\/Ale House","countryIsoCode":"US","yearOpened":"1995","status":"verified","statusDisplay":"Verified","createDate":"2012-01-24 15:01:34","updateDate":"2014-07-23 19:11:34","country":{"isoCode":"US","name":"UNITED STATES","displayName":"United States","isoThree":"USA","numberCode":840,"createDate":"2012-01-03 02:41:33"}},{"id":"JlBnVw","name":"DFH Alehouse, Falls Church","streetAddress":"6220 Leesburg Pike","extendedAddress":"Seven Corners Shopping Center","locality":"Falls Church","region":"Virginia","postalCode":"22044","phone":"703-534-3342","website":"http:\/\/www.dogfishalehouse.com\/dfh-alehouse-falls-church.html","hoursOfOperation":"Monday - Thursday: 11:30am to 11:00pm\r\nFriday - Saturday: 11:30am to 12:00am\r\nSunday: 11:30 am to 10:00pm","latitude":38.870041,"longitude":-77.151446,"isPrimary":"N","inPlanning":"N","isClosed":"N","openToPublic":"Y","locationType":"restaurant","locationTypeDisplay":"Restaurant\/Ale House","countryIsoCode":"US","yearOpened":"1995","status":"verified","statusDisplay":"Verified","createDate":"2012-01-24 15:03:04","updateDate":"2014-07-23 19:11:34","country":{"isoCode":"US","name":"UNITED STATES","displayName":"United States","isoThree":"USA","numberCode":840,"createDate":"2012-01-03 02:41:33"}},{"id":"w4ubfN","name":"DFH Alehouse, Fairfax","streetAddress":"13041 Lee Jackson Memorial Hwy","locality":"Fairfax","region":"Virginia","postalCode":"22033","phone":"703-961-1140","website":"http:\/\/www.dogfishalehouse.com\/dfh-alehouse-fairfax.html","hoursOfOperation":"Monday - Thursday: 11:30am to 11:00pm\r\nFriday - Saturday: 11:30am to 12:00am\r\nSunday: 11:30am to 10:00pm","latitude":38.880695,"longitude":-77.397333,"isPrimary":"N","inPlanning":"N","isClosed":"N","openToPublic":"Y","locationType":"restaurant","locationTypeDisplay":"Restaurant\/Ale House","countryIsoCode":"US","yearOpened":"1995","status":"verified","statusDisplay":"Verified","createDate":"2012-01-24 15:04:07","updateDate":"2014-07-23 19:11:34","country":{"isoCode":"US","name":"UNITED STATES","displayName":"United States","isoThree":"USA","numberCode":840,"createDate":"2012-01-03 02:41:33"}}]}]},{"id":"fKinUP","name":"Busch Ice","nameDisplay":"Busch Ice","description":"Busch Ice has a rich, smooth taste with exceptional drinkability and a slightly sweet finish. Busch Ice undergoes Anheuser-Busch's exclusive ice-brewing process, which takes the beer to a temperature below freezing. This leads to the formation of ice crystals in the finishing process, which help create its rich, smooth taste.","abv":"5.9","glasswareId":5,"srmId":2,"availableId":1,"styleId":99,"isOrganic":"N","labels":{"icon":"https:\/\/s3.amazonaws.com\/brewerydbapi\/beer\/fKinUP\/upload_pruKLV-icon.png","medium":"https:\/\/s3.amazonaws.com\/brewerydbapi\/beer\/fKinUP\/upload_pruKLV-medium.png","large":"https:\/\/s3.amazonaws.com\/brewerydbapi\/beer\/fKinUP\/upload_pruKLV-large.png"},"status":"verified","statusDisplay":"Verified","servingTemperature":"very_cold","servingTemperatureDisplay":"Very Cold - (0-4C\/32-39F)","createDate":"2012-08-29 17:58:10","updateDate":"2015-12-16 18:29:35","glass":{"id":5,"name":"Pint","createDate":"2012-01-03 02:41:33"},"srm":{"id":2,"name":"2","hex":"FFD878"},"available":{"id":1,"name":"Year Round","description":"Available year round as a staple beer."},"style":{"id":99,"categoryId":8,"category":{"id":8,"name":"North American Lager","createDate":"2012-03-21 20:06:46"},"name":"American-Style Ice Lager","shortName":"American Ice Lager","description":"This style is slightly higher in alcohol than most other light-colored, American-style lagers. Its body is low to medium and has low residual malt sweetness. It has few or no adjuncts. Color is very pale to golden. Hop bitterness is low but certainly perceptible. Hop aroma and flavor are low. Chill haze, fruity esters, and diacetyl should not be perceived. Typically these beers are chilled before filtration so that ice crystals (which may or may not be removed) are formed. This can contribute to a higher alcohol content (up to 0.5% more).","ibuMin":"7","ibuMax":"20","abvMin":"4.75","abvMax":"6.25","srmMin":"2","srmMax":"8","ogMin":"1.04","fgMin":"1.006","fgMax":"1.014","createDate":"2012-03-21 20:06:46","updateDate":"2015-04-07 15:40:16"},"breweries":[{"id":"BznahA","name":"Anheuser-Busch InBev","nameShortDisplay":"Anheuser-Busch InBev","description":"Anheuser-Busch operates 12 breweries in the United States, 14 in China and one in the United Kingdom. Anheuser-Busch's operations and resources are focused on adding to life's enjoyment not only through the responsible consumption of beer by adults, but through theme park entertainment and packaging.  In the United States, the company holds a 48.5 percent share of U.S. beer sales. Worldwide, Anheuser-Busch's beer sales volume was 128.4 million barrels in 2007.  The St. Louis-based company's subsidiaries include one of the largest U.S. manufacturers of aluminum beverage containers and one of the world's largest recyclers of aluminum beverage cans. Anheuser-Busch also has interests in malt production, rice milling, real estate development, turf farming, metalized and paper label printing, bottle production and transportation services.","website":"http:\/\/www.anheuser-busch.com\/","established":"1852","isOrganic":"N","images":{"icon":"https:\/\/s3.amazonaws.com\/brewerydbapi\/brewery\/BznahA\/upload_0FkKKl-icon.png","medium":"https:\/\/s3.amazonaws.com\/brewerydbapi\/brewery\/BznahA\/upload_0FkKKl-medium.png","large":"https:\/\/s3.amazonaws.com\/brewerydbapi\/brewery\/BznahA\/upload_0FkKKl-large.png","squareMedium":"https:\/\/s3.amazonaws.com\/brewerydbapi\/brewery\/BznahA\/upload_0FkKKl-squareMedium.png","squareLarge":"https:\/\/s3.amazonaws.com\/brewerydbapi\/brewery\/BznahA\/upload_0FkKKl-squareLarge.png"},"status":"verified","statusDisplay":"Verified","createDate":"2012-01-03 02:41:44","updateDate":"2015-12-22 14:38:44","locations":[{"id":"ZApGug","name":"Main Brewery","streetAddress":"One Busch Place","locality":"Saint Louis","region":"Missouri","postalCode":"63118","phone":"(314) 577-2626","website":"http:\/\/www.anheuser-busch.com\/","hoursOfOperation":"Mon:  10:00am - 4:00pm, 9:00am - 5:00pm\nTue:  10:00am - 4:00pm, 9:00am - 5:00pm\nWed:  10:00am - 4:00pm, 9:00am - 5:00pm\nThu:  10:00am - 4:00pm, 9:00am - 5:00pm\nFri:  10:00am - 4:00pm, 9:00am - 5:00pm\nSat:  10:00am - 4:00pm, 9:00am - 5:00pm\nSun:  11:30am - 4:00pm, 11:30am - 5:00pm\n\nSeptember though May\r\nMon-Sat: 10 a.m. - 4 p.m.\r\nSun: 11:30 a.m. - 4 p.m.\r\n\r\nJune though August\r\nMon-Sat: 9 a.m. - 5 p.m.\r\nSun: 11:30 a.m. - 5 p.m.","latitude":38.5985037,"longitude":-90.2093428,"isPrimary":"Y","inPlanning":"N","isClosed":"N","openToPublic":"Y","locationType":"macro","locationTypeDisplay":"Macro Brewery","countryIsoCode":"US","yearOpened":"1852","status":"verified","statusDisplay":"Verified","createDate":"2012-01-03 02:41:44","updateDate":"2014-08-25 19:12:48","country":{"isoCode":"US","name":"UNITED STATES","displayName":"United States","isoThree":"USA","numberCode":840,"createDate":"2012-01-03 02:41:33"}},{"id":"doVlXA","name":"Fort Collins","streetAddress":"2351 Busch Dr","locality":"Fort Collins","region":"Colorado","postalCode":"80524","phone":"(970) 490-4500","website":"http:\/\/anheuser-busch.com\/","latitude":40.6169416,"longitude":-105.0018273,"isPrimary":"N","inPlanning":"N","isClosed":"N","openToPublic":"N","locationType":"production","locationTypeDisplay":"Production Facility","countryIsoCode":"US","status":"verified","statusDisplay":"Verified","createDate":"2013-07-13 23:02:01","updateDate":"2014-07-23 19:11:34","country":{"isoCode":"US","name":"UNITED STATES","displayName":"United States","isoThree":"USA","numberCode":840,"createDate":"2012-01-03 02:41:33"}},{"id":"G8EZgb","name":"Los Angeles","streetAddress":"15800 Roscoe Blvd","locality":"Van Nuys","region":"California","postalCode":"91406","phone":"(818) 989-5300","website":"http:\/\/anheuser-busch.com\/","latitude":34.2210112,"longitude":-118.4768522,"isPrimary":"N","inPlanning":"N","isClosed":"N","openToPublic":"N","locationType":"production","locationTypeDisplay":"Production Facility","countryIsoCode":"US","status":"verified","statusDisplay":"Verified","createDate":"2013-07-13 23:02:44","updateDate":"2014-07-23 19:11:34","country":{"isoCode":"US","name":"UNITED STATES","displayName":"United States","isoThree":"USA","numberCode":840,"createDate":"2012-01-03 02:41:33"}},{"id":"sRxNq2","name":"Baldwinsville","streetAddress":"2885 Belgium Rd","locality":"Baldwinsville","region":"New York","postalCode":"13027","phone":"(315) 635-4000","website":"http:\/\/anheuser-busch.com\/","latitude":43.1624453,"longitude":-76.3096615,"isPrimary":"N","inPlanning":"N","isClosed":"N","openToPublic":"N","locationType":"production","locationTypeDisplay":"Production Facility","countryIsoCode":"US","status":"verified","statusDisplay":"Verified","createDate":"2013-07-13 23:03:49","updateDate":"2014-07-23 19:11:34","country":{"isoCode":"US","name":"UNITED STATES","displayName":"United States","isoThree":"USA","numberCode":840,"createDate":"2012-01-03 02:41:33"}},{"id":"UlgBzT","name":"Cartersville","streetAddress":"100 Busch Dr NE","locality":"Cartersville","region":"Georgia","postalCode":"30121","phone":"(770) 386-2000","website":"http:\/\/anheuser-busch.com\/","latitude":34.2558728,"longitude":-84.7831874,"isPrimary":"N","inPlanning":"N","isClosed":"N","openToPublic":"N","locationType":"production","locationTypeDisplay":"Production Facility","countryIsoCode":"US","status":"verified","statusDisplay":"Verified","createDate":"2013-07-13 23:04:45","updateDate":"2014-07-23 19:11:34","country":{"isoCode":"US","name":"UNITED STATES","displayName":"United States","isoThree":"USA","numberCode":840,"createDate":"2012-01-03 02:41:33"}},{"id":"75P08u","name":"Columbus","streetAddress":"700 Schrock Rd","locality":"Columbus","region":"Ohio","postalCode":"43229","phone":"(614) 888-6644","website":"http:\/\/anheuser-busch.com\/","latitude":40.102482,"longitude":-82.9933123,"isPrimary":"N","inPlanning":"N","isClosed":"N","openToPublic":"N","locationType":"production","locationTypeDisplay":"Production Facility","countryIsoCode":"US","status":"verified","statusDisplay":"Verified","createDate":"2013-07-13 23:05:39","updateDate":"2014-07-23 19:11:34","country":{"isoCode":"US","name":"UNITED STATES","displayName":"United States","isoThree":"USA","numberCode":840,"createDate":"2012-01-03 02:41:33"}},{"id":"jP7oIL","name":"Fairfield","streetAddress":"3101 Busch Dr","locality":"Fairfield","region":"California","postalCode":"94534","phone":"(707) 429-2000","website":"http:\/\/anheuser-busch.com\/","latitude":38.236362,"longitude":-122.091866,"isPrimary":"N","inPlanning":"N","isClosed":"N","openToPublic":"N","locationType":"production","locationTypeDisplay":"Production Facility","countryIsoCode":"US","status":"verified","statusDisplay":"Verified","createDate":"2013-07-13 23:06:25","updateDate":"2014-07-23 19:11:34","country":{"isoCode":"US","name":"UNITED STATES","displayName":"United States","isoThree":"USA","numberCode":840,"createDate":"2012-01-03 02:41:33"}},{"id":"LiqcRm","name":"Houston","streetAddress":"775 Gellhorn Dr","locality":"Houston","region":"Texas","postalCode":"77029","phone":"(713) 675-2311","website":"http:\/\/anheuser-busch.com\/","latitude":29.773088,"longitude":-95.269255,"isPrimary":"N","inPlanning":"N","isClosed":"N","openToPublic":"N","locationType":"production","locationTypeDisplay":"Production Facility","countryIsoCode":"US","status":"verified","statusDisplay":"Verified","createDate":"2013-07-13 23:07:07","updateDate":"2014-07-23 19:11:34","country":{"isoCode":"US","name":"UNITED STATES","displayName":"United States","isoThree":"USA","numberCode":840,"createDate":"2012-01-03 02:41:33"}},{"id":"y2ZQbD","name":"Jacksonville","streetAddress":"111 Busch Dr","locality":"Jacksonville","region":"Florida","postalCode":"32218","phone":"(904) 751-0700","website":"http:\/\/anheuser-busch.com\/","latitude":30.433924,"longitude":-81.650619,"isPrimary":"N","inPlanning":"N","isClosed":"N","openToPublic":"N","locationType":"production","locationTypeDisplay":"Production Facility","countryIsoCode":"US","status":"verified","statusDisplay":"Verified","createDate":"2013-07-13 23:07:42","updateDate":"2014-07-23 19:11:34","country":{"isoCode":"US","name":"UNITED STATES","displayName":"United States","isoThree":"USA","numberCode":840,"createDate":"2012-01-03 02:41:33"}},{"id":"aMIEke","name":"Merrimack","streetAddress":"221 Daniel Webster Hwy","locality":"Merrimack","region":"New Hampshire","postalCode":"03054","phone":"(603) 595-1202","website":"http:\/\/anheuser-busch.com\/","hoursOfOperation":"Mon:  10:00am - 4:00pm\nThu:  10:00am - 4:00pm\nFri:  10:00am - 4:00pm\nSat:  10:00am - 4:00pm\nSun:  10:00am - 4:00pm\n\nMon: 10:00 am - 4:00 pm\r\nThu - Sun: 10:00 am - 4:00 pm","latitude":42.8260322,"longitude":-71.4871372,"isPrimary":"N","inPlanning":"N","isClosed":"N","openToPublic":"Y","locationType":"production","locationTypeDisplay":"Production Facility","countryIsoCode":"US","yearOpened":"1970","status":"verified","statusDisplay":"Verified","createDate":"2013-07-13 23:08:31","updateDate":"2014-08-25 19:12:49","country":{"isoCode":"US","name":"UNITED STATES","displayName":"United States","isoThree":"USA","numberCode":840,"createDate":"2012-01-03 02:41:33"}},{"id":"Cg12u5","name":"Newark","streetAddress":"200 US Highway 1","locality":"Newark","region":"New Jersey","postalCode":"07114","phone":"(973) 645-7700","website":"http:\/\/anheuser-busch.com\/","latitude":40.7067437,"longitude":-74.1736086,"isPrimary":"N","inPlanning":"N","isClosed":"N","openToPublic":"N","locationType":"production","locationTypeDisplay":"Production Facility","countryIsoCode":"US","status":"verified","statusDisplay":"Verified","createDate":"2013-07-13 23:09:14","updateDate":"2014-07-23 19:11:34","country":{"isoCode":"US","name":"UNITED STATES","displayName":"United States","isoThree":"USA","numberCode":840,"createDate":"2012-01-03 02:41:33"}},{"id":"ozjr3W","name":"Williamsburg","streetAddress":"7801 Pocahontas Trail","locality":"Williamsburg","region":"Virginia","postalCode":"23185","phone":"(757) 253-3600","website":"http:\/\/anheuser-busch.com\/","latitude":37.2381215,"longitude":-76.652522,"isPrimary":"N","inPlanning":"N","isClosed":"N","openToPublic":"N","locationType":"production","locationTypeDisplay":"Production Facility","countryIsoCode":"US","status":"verified","statusDisplay":"Verified","createDate":"2013-07-13 23:09:54","updateDate":"2014-07-23 19:11:34","country":{"isoCode":"US","name":"UNITED STATES","displayName":"United States","isoThree":"USA","numberCode":840,"createDate":"2012-01-03 02:41:33"}}]}]},{"id":"HeRbdq","name":"Old Milwaukee Ice","nameDisplay":"Old Milwaukee Ice","abv":"5.9","glasswareId":5,"availableId":1,"styleId":99,"isOrganic":"N","status":"verified","statusDisplay":"Verified","servingTemperature":"very_cold","servingTemperatureDisplay":"Very Cold - (0-4C\/32-39F)","createDate":"2012-08-29 18:00:16","updateDate":"2012-08-29 18:00:39","glass":{"id":5,"name":"Pint","createDate":"2012-01-03 02:41:33"},"available":{"id":1,"name":"Year Round","description":"Available year round as a staple beer."},"style":{"id":99,"categoryId":8,"category":{"id":8,"name":"North American Lager","createDate":"2012-03-21 20:06:46"},"name":"American-Style Ice Lager","shortName":"American Ice Lager","description":"This style is slightly higher in alcohol than most other light-colored, American-style lagers. Its body is low to medium and has low residual malt sweetness. It has few or no adjuncts. Color is very pale to golden. Hop bitterness is low but certainly perceptible. Hop aroma and flavor are low. Chill haze, fruity esters, and diacetyl should not be perceived. Typically these beers are chilled before filtration so that ice crystals (which may or may not be removed) are formed. This can contribute to a higher alcohol content (up to 0.5% more).","ibuMin":"7","ibuMax":"20","abvMin":"4.75","abvMax":"6.25","srmMin":"2","srmMax":"8","ogMin":"1.04","fgMin":"1.006","fgMax":"1.014","createDate":"2012-03-21 20:06:46","updateDate":"2015-04-07 15:40:16"},"breweries":[{"id":"AKyyYN","name":"Pabst Brewing Company","nameShortDisplay":"Pabst","description":"At Pabst Brewing Company, we make beer with history, with a sense of place. From Milwaukee to Motown, through the Pacific Northwest and back East again, our brands are like family and hometown friends. And we should know a little something about regional pride: Since we started in 1844, we've welcomed 24 new states into the Union. Today, Pabst crafts over 25 classic brews with strict adherence to original standards of quality. Our brands rack up national and international festival awards. Most important, they continue to make memories in the places that mean a lot to our consumers.","website":"http:\/\/www.pabst.com\/","established":"1844","isOrganic":"N","images":{"icon":"https:\/\/s3.amazonaws.com\/brewerydbapi\/brewery\/AKyyYN\/upload_1CzLk8-icon.png","medium":"https:\/\/s3.amazonaws.com\/brewerydbapi\/brewery\/AKyyYN\/upload_1CzLk8-medium.png","large":"https:\/\/s3.amazonaws.com\/brewerydbapi\/brewery\/AKyyYN\/upload_1CzLk8-large.png","squareMedium":"https:\/\/s3.amazonaws.com\/brewerydbapi\/brewery\/AKyyYN\/upload_1CzLk8-squareMedium.png","squareLarge":"https:\/\/s3.amazonaws.com\/brewerydbapi\/brewery\/AKyyYN\/upload_1CzLk8-squareLarge.png"},"status":"verified","statusDisplay":"Verified","createDate":"2012-01-03 02:42:05","updateDate":"2015-12-22 14:54:09","locations":[{"id":"ct1Zeb","name":"Main Brewery","streetAddress":"PO Box 1661","locality":"San Antonio","region":"Texas","postalCode":"78296","phone":"1-800-935-2337","website":"http:\/\/www.pabst.com\/","latitude":29.4497864,"longitude":-98.5386319,"isPrimary":"Y","inPlanning":"N","isClosed":"N","openToPublic":"Y","locationType":"micro","locationTypeDisplay":"Micro Brewery","countryIsoCode":"US","yearOpened":"1844","status":"verified","statusDisplay":"Verified","createDate":"2012-01-03 02:42:05","updateDate":"2014-07-23 19:11:34","country":{"isoCode":"US","name":"UNITED STATES","displayName":"United States","isoThree":"USA","numberCode":840,"createDate":"2012-01-03 02:41:33"}}]}]}],"status":"success"}